Time,header.seq,header.stamp.secs,header.stamp.nsecs,header.frame_id,longitude,latitude,easting,northing,height,speed,yaw,pitch,roll
1622864255.210972,575664,1622864255,180000067,map,121.18250826317,31.27641024173,798.5465632911073,-710.6346838744357,0.0,13.67492389678955,3.053477799181586,0.0,0.0
1622864255.2211077,575665,1622864255,190000057,map,121.18250682967,31.27641032815,798.4102349611348,-710.6228552176617,0.0,13.66928768157959,3.053294546975416,0.0,0.0
1622864255.3134234,575666,1622864255,200000048,map,121.18250539554,31.27641041478,798.2738470286131,-710.6110022896901,0.0,13.670958518981934,3.0530698006309307,0.0,0.0
1622864255.3135982,575667,1622864255,210000038,map,121.18250396108,31.27641050403,798.1374324622448,-710.5988584011793,0.0,13.681984901428223,3.0527933095327264,0.0,0.0
1622864255.3136091,575668,1622864255,220000029,map,121.18250252837,31.27641059082,798.0011800258071,-710.5869899610989,0.0,13.669478416442871,3.0525863302036944,0.0,0.0
1622864255.3136163,575669,1622864255,230000019,map,121.18250109586,31.27641067808,797.8649474921403,-710.5750697297044,0.0,13.658641815185547,3.052391455745316,0.0,0.0
1622864255.3136318,575670,1622864255,240000010,map,121.18249966275,31.27641076631,797.7286596000777,-710.5630410262384,0.0,13.666080474853516,3.052190646556615,0.0,0.0
1622864255.313643,575671,1622864255,250000000,map,121.1824982273,31.27641085692,797.5921532568755,-710.5507448143326,0.0,13.685601234436035,3.0519663738072227,0.0,0.0
1622864255.3136547,575672,1622864255,259999990,map,121.18249679365,31.27641094545,797.4558145003975,-710.5386820030399,0.0,13.681673049926758,3.05175529794609,0.0,0.0
1622864255.3136811,575673,1622864255,269999981,map,121.18249536037,31.27641103402,797.3195110420347,-710.5266153360717,0.0,13.675369262695312,3.0515196754252907,0.0,0.0
1622864255.3137076,575674,1622864255,279999971,map,121.18249392694,31.27641112297,797.1831939989934,-710.5145063064992,0.0,13.674057006835938,3.051257489569236,0.0,0.0
1622864255.318342,575675,1622864255,289999962,map,121.18249249174,31.27641121485,797.0467137829401,-710.5020696916617,0.0,13.678383827209473,3.050996942839147,0.0,0.0
1622864255.3284292,575676,1622864255,299999952,map,121.18249105848,31.27641130465,796.9104144756566,-710.4898667000234,0.0,13.67776870727539,3.0507403004105953,0.0,0.0
1622864255.339251,575677,1622864255,309999943,map,121.18248962509,31.27641139514,796.7741040540859,-710.4775870093144,0.0,13.680096626281738,3.050484397949286,0.0,0.0
1622864255.3462853,575678,1622864255,319999933,map,121.18248819186,31.27641148637,796.6378102174494,-710.4652255363762,0.0,13.680346488952637,3.050263211692503,0.0,0.0
1622864255.3587117,575679,1622864255,329999924,map,121.18248675798,31.27641158005,796.5014589674538,-710.4525914443657,0.0,13.678277015686035,3.050038238821734,0.0,0.0
1622864255.369018,575680,1622864255,339999914,map,121.18248532399,31.27641167244,796.3650948887225,-710.4401001832448,0.0,13.682011604309082,3.0497983482029696,0.0,0.0
1622864255.3782754,575681,1622864255,349999905,map,121.18248389063,31.27641176473,796.228790609166,-710.4276209934615,0.0,13.680004119873047,3.0495330578425066,0.0,0.0
1622864255.3888311,575682,1622864255,359999895,map,121.18248245807,31.27641185708,796.0925626134267,-710.4151364034042,0.0,13.672151565551758,3.049255067174863,0.0,0.0
1622864255.4001434,575683,1622864255,369999886,map,121.18248102434,31.27641195208,795.9562280563405,-710.4023562106304,0.0,13.66882610321045,3.0490286307407977,0.0,0.0
1622864255.4085217,575684,1622864255,380000114,map,121.18247959173,31.27641204544,795.819997140381,-710.3897595764138,0.0,13.672804832458496,3.0487329934330587,0.0,0.0
1622864255.4186904,575685,1622864255,390000105,map,121.1824781575,31.27641213973,795.6836136826314,-710.3770573032089,0.0,13.686410903930664,3.048442864052827,0.0,0.0
1622864255.428431,575686,1622864255,400000095,map,121.18247672456,31.27641223393,795.5473528847797,-710.3643670286983,0.0,13.68854808807373,3.048216355938089,0.0,0.0
1622864255.438991,575687,1622864255,410000086,map,121.18247529378,31.2764123303,795.4113017057534,-710.3514395835809,0.0,13.675312995910645,3.047935413028562,0.0,0.0
1622864255.449696,575688,1622864255,420000076,map,121.18247386164,31.27641242551,795.2751189197879,-710.3386385967024,0.0,13.674707412719727,3.047646252794758,0.0,0.0
1622864255.4582436,575689,1622864255,430000067,map,121.18247242985,31.27641252086,795.1389697151608,-710.3258226355538,0.0,13.673455238342285,3.047390141766603,0.0,0.0
1622864255.4686596,575690,1622864255,440000057,map,121.18247099754,31.27641261715,795.0027727165725,-710.3129016528837,0.0,13.680418968200684,3.0471215805544034,0.0,0.0
1622864255.4891126,575691,1622864255,450000048,map,121.18246956655,31.27641271346,794.8667014326202,-710.2999805235304,0.0,13.681068420410156,3.0468313257722652,0.0,0.0
1622864255.4898415,575692,1622864255,460000038,map,121.18246813637,31.27641281154,794.7307105076616,-710.2868644474074,0.0,13.666495323181152,3.046485166139416,0.0,0.0
1622864255.4990494,575693,1622864255,470000029,map,121.18246670589,31.27641290845,794.5946888787439,-710.2738775997423,0.0,13.662239074707031,3.0461702511290385,0.0,0.0
1622864255.5085688,575694,1622864255,480000019,map,121.1824652774,31.27641300523,794.4588564849691,-710.2609082818963,0.0,13.652321815490723,3.0458427509857566,0.0,0.0
1622864255.5185459,575695,1622864255,490000010,map,121.18246384806,31.27641310449,794.3229476934648,-710.2476627081633,0.0,13.650115966796875,3.045514038990561,0.0,0.0
1622864255.5294502,575696,1622864255,500000000,map,121.1824624198,31.27641320212,794.1871387505089,-710.2345995218493,0.0,13.651469230651855,3.0451832429326133,0.0,0.0
1622864255.5400136,575697,1622864255,509999990,map,121.18246099094,31.27641329994,794.0512730297633,-710.2215143297799,0.0,13.65068244934082,3.0448396908391206,0.0,0.0
1622864255.5492501,575698,1622864255,519999981,map,121.18245956375,31.27641339785,793.9155664767604,-710.2084217779338,0.0,13.644380569458008,3.0445048136079693,0.0,0.0
1622864255.5586493,575699,1622864255,529999971,map,121.18245813767,31.2764134983,793.7799702467746,-710.1950493915938,0.0,13.628238677978516,3.0441278562442067,0.0,0.0
1622864255.5685709,575700,1622864255,539999962,map,121.18245671106,31.27641359756,793.6443213832099,-710.1818080917001,0.0,13.631189346313477,3.0437425596100107,0.0,0.0
1622864255.5783648,575701,1622864255,549999952,map,121.18245528522,31.27641369697,793.5087461068761,-710.1685513681732,0.0,13.630824089050293,3.0433766780358673,0.0,0.0
1622864255.5854194,575702,1622864255,559999943,map,121.18245386041,31.27641379638,793.3732688981108,-710.1552962586284,0.0,13.62206745147705,3.043002568490938,0.0,0.0
1622864255.5982943,575703,1622864255,569999933,map,121.18245243669,31.27641389784,793.2378992133308,-710.141815603245,0.0,13.602337837219238,3.0426175282456103,0.0,0.0
1622864255.6085873,575704,1622864255,579999924,map,121.18245101287,31.27641399795,793.1025175424875,-710.128484445624,0.0,13.599379539489746,3.0422263133220944,0.0,0.0
1622864255.618695,575705,1622864255,589999914,map,121.18244958871,31.27641409863,792.9671045418363,-710.1150895636529,0.0,13.604440689086914,3.0418270153948397,0.0,0.0
1622864255.6286445,575706,1622864255,599999905,map,121.18244816519,31.27641419969,792.8317531713983,-710.1016535600647,0.0,13.605497360229492,3.0414394602522323,0.0,0.0
1622864255.6393147,575707,1622864255,609999895,map,121.18244674428,31.27641430266,792.6966537912958,-710.0880099115893,0.0,13.582676887512207,3.040987180848404,0.0,0.0
1622864255.6486843,575708,1622864255,619999886,map,121.18244532228,31.27641440443,792.5614484400721,-710.0744975805283,0.0,13.580126762390137,3.0405467615502566,0.0,0.0
1622864255.6585674,575709,1622864255,630000114,map,121.18244390079,31.27641450665,792.4262924696086,-710.0609361636452,0.0,13.579039573669434,3.0401219586204977,0.0,0.0
1622864255.6685112,575710,1622864255,640000105,map,121.18244248068,31.27641460912,792.2912683464237,-710.0473491926678,0.0,13.571684837341309,3.039699457692755,0.0,0.0
1622864255.6785884,575711,1622864255,650000095,map,121.18244106065,31.27641471425,792.1562566981302,-710.0334674706683,0.0,13.565796852111816,3.039270050532069,0.0,0.0
1622864255.6892295,575712,1622864255,660000086,map,121.18243964122,31.27641481778,792.0212992556044,-710.0197640573606,0.0,13.559782981872559,3.0388521499431698,0.0,0.0
1622864255.6988564,575713,1622864255,670000076,map,121.18243822209,31.2764149219,791.8863714558538,-710.0059957080521,0.0,13.553013801574707,3.0384425032606477,0.0,0.0
1622864255.7089565,575714,1622864255,680000067,map,121.18243680353,31.27641502658,791.751498948026,-709.9921661713161,0.0,13.547483444213867,3.0380226289138026,0.0,0.0
1622864255.7179878,575715,1622864255,690000057,map,121.18243538545,31.27641513368,791.6166765626986,-709.9780691158958,0.0,13.542522430419922,3.0376122210059293,0.0,0.0
1622864255.7283585,575716,1622864255,700000048,map,121.18243396716,31.27641523876,791.4818304947112,-709.9641956575215,0.0,13.538022994995117,3.03719701565918,0.0,0.0
1622864255.7408118,575717,1622864255,710000038,map,121.18243254987,31.27641534395,791.3470798388589,-709.9503115718253,0.0,13.534594535827637,3.036753840084717,0.0,0.0
1622864255.7481906,575718,1622864255,720000029,map,121.18243113305,31.27641544915,791.2123739495873,-709.9364271122031,0.0,13.529237747192383,3.036299524754318,0.0,0.0
1622864255.7584877,575719,1622864255,730000019,map,121.18242971434,31.27641555746,791.0774937912938,-709.9221949256025,0.0,13.533404350280762,3.0358388036990434,0.0,0.0
1622864255.7682958,575720,1622864255,740000010,map,121.18242829757,31.27641566402,790.9427951492253,-709.9081597770564,0.0,13.52929401397705,3.035412546875111,0.0,0.0
1622864255.7785935,575721,1622864255,750000000,map,121.18242688151,31.27641577104,790.8081649480737,-709.8940747482702,0.0,13.520756721496582,3.0350070660491686,0.0,0.0
1622864255.7971265,575722,1622864255,759999990,map,121.18242546542,31.27641587887,790.673533367808,-709.8798998757266,0.0,13.517849922180176,3.034607899108874,0.0,0.0
1622864255.7985024,575723,1622864255,769999981,map,121.18242404816,31.27641599006,790.5387965277769,-709.865350692533,0.0,13.523087501525879,3.0342562088941456,0.0,0.0
1622864255.8084884,575724,1622864255,779999971,map,121.18242263262,31.27641609883,790.4042190343607,-709.8510724762455,0.0,13.515395164489746,3.033873882862697,0.0,0.0
1622864255.8185372,575725,1622864255,789999962,map,121.18242121712,31.27641620821,790.2696464612382,-709.8367266980931,0.0,13.515623092651367,3.0334532894751063,0.0,0.0
1622864255.82829,575726,1622864255,799999952,map,121.18241980147,31.27641631784,790.1350600636797,-709.822352968622,0.0,13.514997482299805,3.0330359409513026,0.0,0.0
1622864255.8404732,575727,1622864255,809999943,map,121.18241838501,31.27641643036,790.0004018230829,-709.8076575957239,0.0,13.519109725952148,3.032629264609729,0.0,0.0
1622864255.849088,575728,1622864255,819999933,map,121.18241696982,31.27641654119,789.8658614160959,-709.7931515574455,0.0,13.514184951782227,3.032262381792554,0.0,0.0
1622864255.8588586,575729,1622864255,829999924,map,121.18241555469,31.27641665255,789.7313276873901,-709.7785868574865,0.0,13.507262229919434,3.0319200343427632,0.0,0.0
1622864255.8683212,575730,1622864255,839999914,map,121.18241413929,31.2764167647,789.5967696978478,-709.7639341587201,0.0,13.50823974609375,3.0315652114889207,0.0,0.0
1622864255.8789911,575731,1622864255,849999905,map,121.18241272416,31.27641687752,789.4622386386036,-709.7492076074705,0.0,13.51375675201416,3.0312005723972195,0.0,0.0
1622864255.890093,575732,1622864255,859999895,map,121.18241130854,31.27641699348,789.327666659723,-709.7341321976855,0.0,13.516336441040039,3.0307911688739693,0.0,0.0
1622864255.8990178,575733,1622864255,869999886,map,121.18240989351,31.27641710751,789.1931473318255,-709.7192716631107,0.0,13.517101287841797,3.0303927021074113,0.0,0.0
1622864255.9083219,575734,1622864255,880000114,map,121.1824084791,31.27641722203,789.0586879308103,-709.7043577823788,0.0,13.52150821685791,3.0300149622776384,0.0,0.0
1622864255.9184787,575735,1622864255,890000105,map,121.18240706417,31.27641733917,788.9241838018643,-709.6891526398249,0.0,13.517602920532227,3.0296974975506625,0.0,0.0
1622864255.9287853,575736,1622864255,900000095,map,121.18240565023,31.27641745455,788.789770722622,-709.6741441558115,0.0,13.511035919189453,3.0293274379899016,0.0,0.0
1622864255.9392462,575737,1622864255,910000086,map,121.18240423638,31.27641757061,788.6553674542811,-709.659060427919,0.0,13.515162467956543,3.0289542798763076,0.0,0.0
1622864255.94947,575738,1622864255,920000076,map,121.18240282179,31.27641768732,788.5208949166117,-709.6439034822397,0.0,13.523106575012207,3.028595654089651,0.0,0.0
1622864255.957982,575739,1622864255,930000067,map,121.18240140818,31.27641780664,788.386520452972,-709.6284587392583,0.0,13.514406204223633,3.0282133370466484,0.0,0.0
1622864255.968602,575740,1622864255,940000057,map,121.18239999513,31.27641792441,788.2521964730695,-709.6131866984069,0.0,13.511902809143066,3.027844305764071,0.0,0.0
1622864255.978207,575741,1622864255,950000048,map,121.18239858182,31.27641804288,788.1178490224993,-709.5978366485797,0.0,13.517343521118164,3.027451416982535,0.0,0.0
1622864255.989237,575742,1622864255,960000038,map,121.18239716859,31.27641816177,787.9835099560441,-709.5824401634745,0.0,13.523526191711426,3.02708819904263,0.0,0.0
1622864256.0004983,575743,1622864255,970000029,map,121.18239575695,31.27641828241,787.8493254701607,-709.5668521742336,0.0,13.510668754577637,3.026737906121048,0.0,0.0
1622864256.008333,575744,1622864255,980000019,map,121.18239434424,31.27641840196,787.7150371157913,-709.5513833346777,0.0,13.512175559997559,3.026358697195283,0.0,0.0
1622864256.0185978,575745,1622864255,990000010,map,121.1823929315,31.27641852206,787.5807469147258,-709.5358534785919,0.0,13.51948070526123,3.0259840184984843,0.0,0.0
1622864256.0305338,575746,1622864256,0,map,121.18239151978,31.27641864234,787.4465541555546,-709.5203052661382,0.0,13.51593017578125,3.0256130276125828,0.0,0.0
1622864256.0472894,575747,1622864256,9999990,map,121.18239010954,31.27641876479,787.3125062758918,-709.5045188162476,0.0,13.498546600341797,3.0252165185120337,0.0,0.0
1622864256.0586143,575748,1622864256,19999981,map,121.18238869918,31.27641888582,787.178444373305,-709.4888895913027,0.0,13.497335433959961,3.024834882042719,0.0,0.0
1622864256.066928,575749,1622864256,29999971,map,121.18238728723,31.27641900668,787.0442307787016,-709.47327671526,0.0,13.498811721801758,3.0244664582394405,0.0,0.0
1622864256.0768812,575750,1622864256,39999962,map,121.18238587522,31.27641912573,786.910008163657,-709.4578643948771,0.0,13.498679161071777,3.024075824667645,0.0,0.0
1622864256.085535,575751,1622864256,49999952,map,121.18238446413,31.27641924482,786.7758732164511,-709.4424490793608,0.0,13.495562553405762,3.0236853159916106,0.0,0.0
1622864256.0973635,575752,1622864256,59999943,map,121.18238305283,31.27641936392,786.6417182938894,-709.4270323244855,0.0,13.488814353942871,3.023286047996753,0.0,0.0
1622864256.1062138,575753,1622864256,69999933,map,121.18238164245,31.27641948385,786.5076524820179,-709.4115250012837,0.0,13.48824691772461,3.0228811002816305,0.0,0.0
1622864256.1151645,575754,1622864256,79999924,map,121.18238023272,31.27641960399,786.3736489418079,-709.3959954162128,0.0,13.48244571685791,3.022475793726813,0.0,0.0
1622864256.1252012,575755,1622864256,89999914,map,121.18237882339,31.27641972441,786.2396839968278,-709.3804354174063,0.0,13.471474647521973,3.022075047281,0.0,0.0
1622864256.1344128,575756,1622864256,99999905,map,121.18237741471,31.27641984557,786.1057822941802,-709.3647944033146,0.0,13.470126152038574,3.0216742961402505,0.0,0.0
1622864256.1452045,575757,1622864256,109999895,map,121.18237600704,31.27641996682,785.9719769167714,-709.3491449938156,0.0,13.462884902954102,3.0212557987709188,0.0,0.0
1622864256.153904,575758,1622864256,119999886,map,121.18237460056,31.27642008818,785.8382850438356,-709.3334852554835,0.0,13.45539379119873,3.0208389965875306,0.0,0.0
1622864256.1631577,575759,1622864256,130000114,map,121.18237319294,31.27642020955,785.7044846515055,-709.31782261841,0.0,13.44896411895752,3.0204127445632527,0.0,0.0
1622864256.1732407,575760,1622864256,140000105,map,121.18237178719,31.27642033151,785.5708633796312,-709.3020975086838,0.0,13.443466186523438,3.019997933870354,0.0,0.0
1622864256.1814578,575761,1622864256,150000095,map,121.18237038149,31.27642045395,785.4372477451107,-709.2863192660734,0.0,13.439773559570312,3.019568617030458,0.0,0.0
1622864256.192644,575762,1622864256,160000086,map,121.18236897642,31.27642057704,785.3036932819523,-709.2704699514434,0.0,13.441283226013184,3.019127684937121,0.0,0.0
1622864256.2011664,575763,1622864256,170000076,map,121.18236757218,31.27642069987,785.1702173697995,-709.2546507623047,0.0,13.425019264221191,3.018652910002019,0.0,0.0
1622864256.2102077,575764,1622864256,180000067,map,121.18236616891,31.27642082325,785.0368348173215,-709.2387721189298,0.0,13.420666694641113,3.018191766018561,0.0,0.0
1622864256.219105,575765,1622864256,190000057,map,121.18236476583,31.27642094677,784.9034706152743,-709.2228782540187,0.0,13.416372299194336,3.01774648971345,0.0,0.0
1622864256.230119,575766,1622864256,200000048,map,121.18236336322,31.27642107054,784.7701516157249,-709.2069574105553,0.0,13.412359237670898,3.017309172755501,0.0,0.0
1622864256.2423246,575767,1622864256,210000038,map,121.18236196085,31.27642119476,784.6368562909192,-709.1909870561212,0.0,13.409197807312012,3.016842779031092,0.0,0.0
1622864256.2501442,575768,1622864256,220000029,map,121.18236055904,31.2764213191,784.5036145023769,-709.175004277844,0.0,13.397000312805176,3.016347207572928,0.0,0.0
1622864256.2591484,575769,1622864256,230000019,map,121.18235915808,31.2764214439,784.3704544864013,-709.1589718353935,0.0,13.393171310424805,3.0158637538659456,0.0,0.0
1622864256.2685692,575770,1622864256,240000010,map,121.18235775789,31.27642156902,784.2373683658661,-709.1429051253945,0.0,13.387024879455566,3.0153905758547492,0.0,0.0
1622864256.2785058,575771,1622864256,250000000,map,121.18235635802,31.27642169439,784.1043131714687,-709.1268112026155,0.0,13.37572193145752,3.0148824020023732,0.0,0.0
1622864256.289381,575772,1622864256,259999990,map,121.18235495866,31.27642182028,783.9713074858882,-709.1106604323722,0.0,13.379108428955078,3.014395569163427,0.0,0.0
1622864256.2987947,575773,1622864256,269999981,map,121.18235355927,31.27642194648,783.8382995080901,-709.0944752488285,0.0,13.378591537475586,3.0139032914906263,0.0,0.0
1622864256.3089354,575774,1622864256,279999971,map,121.1823521618,31.27642207267,783.7054743226618,-709.0782941840589,0.0,13.366960525512695,3.01340200332867,0.0,0.0
1622864256.3184094,575775,1622864256,289999962,map,121.1823507625,31.27642219984,783.5724766858621,-709.0620016073808,0.0,13.362541198730469,3.012892255503468,0.0,0.0
1622864256.3288567,575776,1622864256,299999952,map,121.18234936524,31.27642232731,783.4396738302312,-709.0456789736636,0.0,13.358515739440918,3.0124252225522214,0.0,0.0
1622864256.3394501,575777,1622864256,309999943,map,121.18234796815,31.27642245526,783.3068880394567,-709.029303392861,0.0,13.355208396911621,3.0119515082886106,0.0,0.0
1622864256.3497057,575778,1622864256,319999933,map,121.18234657193,31.27642258349,783.1741855944274,-709.0128981359303,0.0,13.345351219177246,3.0114639751013956,0.0,0.0
1622864256.3578577,575779,1622864256,329999924,map,121.18234517415,31.27642271246,783.0413359708036,-708.9964083968662,0.0,13.34526252746582,3.0109892612179103,0.0,0.0
1622864256.36821,575780,1622864256,339999914,map,121.18234377789,31.27642284165,782.9086314688902,-708.9798966520466,0.0,13.345827102661133,3.010492447032957,0.0,0.0
1622864256.3781142,575781,1622864256,349999905,map,121.18234238221,31.27642297103,782.775982540159,-708.9633647529408,0.0,13.33735466003418,3.0099777413905766,0.0,0.0
1622864256.3859644,575782,1622864256,359999895,map,121.18234098668,31.27642310093,782.6433488427429,-708.9467754433863,0.0,13.327598571777344,3.009452607004489,0.0,0.0
1622864256.3987024,575783,1622864256,369999886,map,121.18233958893,31.27642323248,782.5105067889672,-708.9299997375347,0.0,13.33911418914795,3.0089842040046864,0.0,0.0
1622864256.4089067,575784,1622864256,380000114,map,121.18233819386,31.27642336393,782.3779197215335,-708.9132393170148,0.0,13.334592819213867,3.008543389511635,0.0,0.0
1622864256.4178298,575785,1622864256,390000105,map,121.18233679946,31.2764234959,782.2453973916126,-708.8964223023504,0.0,13.330336570739746,3.0081063448599554,0.0,0.0
1622864256.4279997,575786,1622864256,400000095,map,121.18233540502,31.27642362841,782.1128722423455,-708.8795453612693,0.0,13.32606029510498,3.0076297414306623,0.0,0.0
1622864256.4385233,575787,1622864256,410000086,map,121.18233400801,31.27642376194,781.9801042629406,-708.8625513147563,0.0,13.334619522094727,3.007133421941832,0.0,0.0
1622864256.4478455,575788,1622864256,420000076,map,121.18233261336,31.27642389563,781.8475612757029,-708.8455432318151,0.0,13.33174991607666,3.0066791262289336,0.0,0.0
1622864256.4584982,575789,1622864256,430000067,map,121.18233121925,31.27642402991,781.7150707814726,-708.8284705881961,0.0,13.326177597045898,3.006224301279845,0.0,0.0
1622864256.4685478,575790,1622864256,440000057,map,121.18232982488,31.27642416492,781.5825568641303,-708.8113166117109,0.0,13.320076942443848,3.005772111708114,0.0,0.0
1622864256.4789317,575791,1622864256,450000048,map,121.18232843165,31.27642430035,781.4501522570499,-708.7941178614274,0.0,13.313501358032227,3.0053511845786662,0.0,0.0
1622864256.489756,575792,1622864256,460000038,map,121.18232703558,31.27642443799,781.3174812820507,-708.7766696633771,0.0,13.326594352722168,3.0049482890914905,0.0,0.0
1622864256.495964,575793,1622864256,470000029,map,121.18232564295,31.27642457523,781.1851371090161,-708.7592712016776,0.0,13.322020530700684,3.0045182815375417,0.0,0.0
1622864256.508322,575794,1622864256,480000019,map,121.18232425074,31.27642471298,781.052833855385,-708.7418168610893,0.0,13.313919067382812,3.0040746372200027,0.0,0.0
1622864256.5186636,575795,1622864256,490000010,map,121.18232285535,31.27642485232,780.9202307332307,-708.7241812688299,0.0,13.330351829528809,3.0036605704038837,0.0,0.0
1622864256.5287478,575796,1622864256,500000000,map,121.18232146182,31.27642499175,780.7878048685379,-708.7065386166796,0.0,13.329697608947754,3.003261032040071,0.0,0.0
1622864256.539787,575797,1622864256,509999990,map,121.18232006969,31.27642513171,780.655513271573,-708.6888394062407,0.0,13.327841758728027,3.002862671354625,0.0,0.0
1622864256.5485835,575798,1622864256,519999981,map,121.18231867692,31.27642527249,780.5231622341089,-708.6710482877679,0.0,13.326614379882812,3.0024486760795535,0.0,0.0
1622864256.5588639,575799,1622864256,529999971,map,121.18231728399,31.27642541408,780.3907974432223,-708.6531671220437,0.0,13.323912620544434,3.0020444516114195,0.0,0.0
1622864256.5685773,575800,1622864256,539999962,map,121.18231589274,31.27642555603,780.2585932654911,-708.635248683393,0.0,13.324621200561523,3.0016627764307016,0.0,0.0
1622864256.5854127,575801,1622864256,549999952,map,121.18231450117,31.27642569871,780.1263599571539,-708.6172488164157,0.0,13.326011657714844,3.0012677705996906,0.0,0.0
1622864256.5892556,575802,1622864256,559999943,map,121.18231310952,31.27642584203,779.994120198884,-708.5991778732277,0.0,13.325868606567383,3.000848793125188,0.0,0.0
1622864256.598331,575803,1622864256,569999933,map,121.18231171689,31.27642598645,779.8617891408503,-708.5809834506363,0.0,13.33838939666748,3.0004365935844777,0.0,0.0
1622864256.60879,575804,1622864256,579999924,map,121.18231032547,31.27642613136,779.7295741854468,-708.562736605294,0.0,13.338380813598633,3.000045552617927,0.0,0.0
1622864256.618339,575805,1622864256,589999914,map,121.18230893527,31.27642627677,779.5974763029371,-708.5444362438284,0.0,13.329537391662598,2.999628648158245,0.0,0.0
1622864256.628565,575806,1622864256,599999905,map,121.18230754472,31.27642642314,779.4653468511533,-708.5260289106518,0.0,13.328876495361328,2.9992243721505383,0.0,0.0
1622864256.6388988,575807,1622864256,609999895,map,121.18230615178,31.27642656947,779.3329897660296,-708.507622261066,0.0,13.33594799041748,2.9989478006973758,0.0,0.0
1622864256.6485212,575808,1622864256,619999886,map,121.18230475967,31.27642671568,779.200711492449,-708.4892302127555,0.0,13.338912963867188,2.998586754365939,0.0,0.0
1622864256.6597843,575809,1622864256,630000114,map,121.18230336777,31.27642686215,779.0684536855551,-708.4708096724935,0.0,13.352587699890137,2.9982275348880836,0.0,0.0
1622864256.6687727,575810,1622864256,640000105,map,121.1823019767,31.27642700896,778.9362755280454,-708.4523527384736,0.0,13.352211952209473,2.997923817945092,0.0,0.0
1622864256.6784272,575811,1622864256,650000095,map,121.18230058609,31.27642715621,778.8041419703513,-708.4338477496058,0.0,13.332359313964844,2.9974744197482486,0.0,0.0
1622864256.6894114,575812,1622864256,660000086,map,121.18229919545,31.276427305,778.6720083697,-708.415171994362,0.0,13.338422775268555,2.997090556919487,0.0,0.0
1622864256.699555,575813,1622864256,670000076,map,121.18229780496,31.27642745432,778.539890021144,-708.396437718533,0.0,13.33245849609375,2.996798591191083,0.0,0.0
1622864256.7054362,575814,1622864256,680000067,map,121.1822964141,31.27642760391,778.407736934023,-708.3776729288511,0.0,13.333067893981934,2.99649925409949,0.0,0.0
1622864256.7190506,575815,1622864256,690000057,map,121.18229502178,31.27642775309,778.2754440914141,-708.35895129852,0.0,13.339632987976074,2.99621103007775,0.0,0.0
1622864256.728837,575816,1622864256,700000048,map,121.18229363157,31.27642790283,778.1433531718794,-708.3401708980091,0.0,13.341745376586914,2.995940284219471,0.0,0.0
1622864256.7398458,575817,1622864256,710000038,map,121.18229224049,31.27642805337,778.0111808751244,-708.3213004460558,0.0,13.349297523498535,2.995599867226008,0.0,0.0
1622864256.7492244,575818,1622864256,720000029,map,121.18229085071,31.27642820415,777.8791327931685,-708.302405425813,0.0,13.342146873474121,2.995231952727258,0.0,0.0
1622864256.7584443,575819,1622864256,730000019,map,121.18228946095,31.27642835559,777.7470878236927,-708.2834372711368,0.0,13.337235450744629,2.994850508645587,0.0,0.0
1622864256.7683897,575820,1622864256,740000010,map,121.18228806975,31.27642850812,777.6149077377631,-708.2643460230902,0.0,13.349453926086426,2.9945131396951297,0.0,0.0
1622864256.7783391,575821,1622864256,750000000,map,121.18228667972,31.27642866094,777.4828395784134,-708.2452244590968,0.0,13.349410057067871,2.9941697494285644,0.0,0.0
1622864256.7892237,575822,1622864256,759999990,map,121.18228528958,31.27642881398,777.3507613507682,-708.2260783337988,0.0,13.347375869750977,2.993774033754694,0.0,0.0
1622864256.798468,575823,1622864256,769999981,map,121.18228389991,31.27642896695,777.2187277459889,-708.2069407049567,0.0,13.342456817626953,2.993342836043275,0.0,0.0
1622864256.8092651,575824,1622864256,779999971,map,121.18228251085,31.27642912153,777.0867551595438,-708.1876255525276,0.0,13.34190559387207,2.9929375637492712,0.0,0.0
1622864256.8191316,575825,1622864256,789999962,map,121.18228112158,31.27642927717,776.9547645183047,-708.1681925612502,0.0,13.34378433227539,2.9925421663361886,0.0,0.0
1622864256.8288085,575826,1622864256,799999952,map,121.18227973179,31.27642943375,776.8227260784479,-708.1486545498483,0.0,13.356854438781738,2.9922218402291705,0.0,0.0
1622864256.8395307,575827,1622864256,809999943,map,121.18227834475,31.27642958899,776.690947029856,-708.1292693954892,0.0,13.341804504394531,2.991922227550089,0.0,0.0
1622864256.8487258,575828,1622864256,819999933,map,121.1822769573,31.27642974487,776.5591301100794,-708.1098126494326,0.0,13.341248512268066,2.9915303889855243,0.0,0.0
1622864256.8582153,575829,1622864256,829999924,map,121.18227556983,31.27642990122,776.427312145126,-708.0903037688695,0.0,13.342507362365723,2.991001656725357,0.0,0.0
1622864256.8688426,575830,1622864256,839999914,map,121.18227418312,31.27643005775,776.2955668702489,-708.0707761235535,0.0,13.343205451965332,2.990391428130911,0.0,0.0
1622864256.8790183,575831,1622864256,849999905,map,121.18227279511,31.27643021393,776.1636971827829,-708.0512852375396,0.0,13.346535682678223,2.9898563809553496,0.0,0.0
1622864256.8898778,575832,1622864256,859999895,map,121.18227140974,31.27643036963,776.0320779795293,-708.0318517033011,0.0,13.319561958312988,2.9894489796040054,0.0,0.0
1622864256.8988183,575833,1622864256,869999886,map,121.18227002421,31.276430527,775.9004465886392,-708.0122327841818,0.0,13.306609153747559,2.9889260556599617,0.0,0.0
1622864256.909286,575834,1622864256,880000114,map,121.18226863709,31.27643068427,775.7686636314611,-707.9926224560477,0.0,13.312105178833008,2.98858017154479,0.0,0.0
1622864256.918597,575835,1622864256,890000105,map,121.18226725224,31.27643084221,775.6370980291395,-707.9729414130561,0.0,13.302807807922363,2.988119707855767,0.0,0.0
1622864256.929055,575836,1622864256,900000095,map,121.18226586911,31.27643100104,775.5056978164939,-707.9531644070521,0.0,13.290633201599121,2.987534709514094,0.0,0.0
1622864256.9394083,575837,1622864256,910000086,map,121.18226448429,31.27643116074,775.3741382858716,-707.9332883032039,0.0,13.304443359375,2.986975461795112,0.0,0.0
1622864256.9508479,575838,1622864256,920000076,map,121.18226310004,31.27643132028,775.2426327348221,-707.9134308286011,0.0,13.306323051452637,2.9864945946137214,0.0,0.0
1622864256.9587452,575839,1622864256,930000067,map,121.18226171415,31.2764314805,775.1109722767724,-707.8934953967109,0.0,13.30770206451416,2.9860558715487144,0.0,0.0
1622864256.968934,575840,1622864256,940000057,map,121.18226032797,31.2764316418,774.9792861812748,-707.8734397855587,0.0,13.314140319824219,2.985653691437093,0.0,0.0
1622864256.9779794,575841,1622864256,950000048,map,121.18225894425,31.27643180278,774.8478337220149,-707.8534235050902,0.0,13.295004844665527,2.9852537427987333,0.0,0.0
1622864256.9896996,575842,1622864256,960000038,map,121.18225756089,31.27643196501,774.7164178240346,-707.8332692161202,0.0,13.287181854248047,2.9847889747088967,0.0,0.0
1622864256.9984822,575843,1622864256,970000029,map,121.18225617631,31.27643212858,774.584888216923,-707.8129644668661,0.0,13.287303924560547,2.984370118953657,0.0,0.0
1622864257.008384,575844,1622864256,980000019,map,121.1822547939,31.27643229275,774.4535663137212,-707.792596606072,0.0,13.281413078308105,2.9839925095174324,0.0,0.0
1622864257.018605,575845,1622864256,990000010,map,121.18225341028,31.27643245852,774.3221321260207,-707.7720494773239,0.0,13.287629127502441,2.9835889605615313,0.0,0.0
1622864257.030902,575846,1622864257,0,map,121.18225202633,31.27643262507,774.190667947114,-707.7514153602533,0.0,13.299731254577637,2.983194930613919,0.0,0.0
1622864257.04822,575847,1622864257,9999990,map,121.18225064118,31.27643279172,774.0590896935901,-707.7307682731189,0.0,13.302172660827637,2.9828728804183053,0.0,0.0
1622864257.058884,575848,1622864257,19999981,map,121.18224925743,31.27643295884,773.9276455959189,-707.710071278736,0.0,13.296640396118164,2.982505706200959,0.0,0.0
1622864257.0681887,575849,1622864257,29999971,map,121.18224787373,31.27643312615,773.7962066060863,-707.6893533002585,0.0,13.284550666809082,2.982127138386988,0.0,0.0
1622864257.0795195,575850,1622864257,39999962,map,121.18224649813,31.27643329456,773.665540842223,-707.6685260841623,0.0,13.279794692993164,2.981750162051496,0.0,0.0
1622864257.090071,575851,1622864257,49999952,map,121.18224511884,31.27643346407,773.5345257560839,-707.6475711362436,0.0,13.285271644592285,2.981364159885403,0.0,0.0
1622864257.099927,575852,1622864257,59999943,map,121.18224374247,31.27643363486,773.4037910296465,-707.6264788717963,0.0,13.29267406463623,2.9809365276722066,0.0,0.0
1622864257.1091495,575853,1622864257,69999933,map,121.18224236495,31.27643380524,773.2729460576084,-707.60543025285,0.0,13.285235404968262,2.9805205775236527,0.0,0.0
1622864257.1180162,575854,1622864257,79999924,map,121.18224098635,31.27643397639,773.1419996646582,-707.5842945799232,0.0,13.283129692077637,2.980148886795627,0.0,0.0
1622864257.1278067,575855,1622864257,89999914,map,121.18223960739,31.27643414967,773.0110228875419,-707.5629222164862,0.0,13.304527282714844,2.979814865351768,0.0,0.0
1622864257.1366313,575856,1622864257,99999905,map,121.18223822746,31.27643432189,772.8799518175074,-707.5416658381,0.0,13.30631160736084,2.9794376136382263,0.0,0.0
1622864257.1472478,575857,1622864257,109999895,map,121.18223684751,31.27643449428,772.7488791543292,-707.5203905799426,0.0,13.309226989746094,2.9790330779953407,0.0,0.0
1622864257.1607094,575858,1622864257,119999886,map,121.18223546736,31.27643466678,772.6177876531729,-707.4991028131917,0.0,13.30085277557373,2.9786157098365824,0.0,0.0
1622864257.1655393,575859,1622864257,130000114,map,121.18223408854,31.27643484069,772.4868253552704,-707.4776608236134,0.0,13.30665111541748,2.9781577186507913,0.0,0.0
1622864257.1751292,575860,1622864257,140000105,map,121.18223270699,31.27643501449,772.3556029301253,-707.4562267442234,0.0,13.310749053955078,2.9777294885576064,0.0,0.0
1622864257.1854403,575861,1622864257,150000095,map,121.18223132635,31.27643518853,772.2244675860275,-707.4347674846649,0.0,13.31179141998291,2.977316972257089,0.0,0.0
1622864257.1960893,575862,1622864257,160000086,map,121.18222994581,31.27643536302,772.093342587701,-707.4132584971376,0.0,13.314406394958496,2.976910949279521,0.0,0.0
1622864257.20497,575863,1622864257,170000076,map,121.18222856451,31.27643553908,771.9621480939677,-707.3915742705576,0.0,13.330151557922363,2.9765061241388713,0.0,0.0
1622864257.217172,575864,1622864257,180000067,map,121.18222718212,31.27643571456,771.8308487616014,-707.3699526279233,0.0,13.327470779418945,2.976080166970518,0.0,0.0
1622864257.2237394,575865,1622864257,190000057,map,121.18222580004,31.27643589039,771.6995795860421,-707.348292672541,0.0,13.330892562866211,2.9756350264869296,0.0,0.0
1622864257.2322392,575866,1622864257,200000048,map,121.18222441707,31.27643606668,771.5682265105424,-707.3265803237446,0.0,13.337260246276855,2.975221448799334,0.0,0.0
1622864257.2431064,575867,1622864257,210000038,map,121.18222303596,31.27643624417,771.4370527251158,-707.3047378677875,0.0,13.3366060256958,2.974839093167101,0.0,0.0
1622864257.2520556,575868,1622864257,220000029,map,121.18222165413,31.27643642105,771.3058092683787,-707.282961898949,0.0,13.335455894470215,2.9744329438626025,0.0,0.0
1622864257.2609484,575869,1622864257,230000019,map,121.18222027075,31.27643659874,771.1744197159423,-707.2610937054269,0.0,13.343817710876465,2.9740165780987926,0.0,0.0
1622864257.2701206,575870,1622864257,240000010,map,121.18221888742,31.276436777,771.0430359655293,-707.2391623994336,0.0,13.352301597595215,2.9736207396933687,0.0,0.0
1622864257.2793133,575871,1622864257,250000000,map,121.18221750687,31.2764369559,770.9119180716807,-707.2171645062044,0.0,13.352080345153809,2.973213149567211,0.0,0.0
1622864257.2900152,575872,1622864257,259999990,map,121.18221612413,31.27643713482,770.7805917031365,-707.1951609584503,0.0,13.354092597961426,2.972800173494609,0.0,0.0
1622864257.2988114,575873,1622864257,269999981,map,121.18221474154,31.27643731403,770.6492801436689,-707.1731254956685,0.0,13.355843544006348,2.9723824740374525,0.0,0.0
1622864257.3089767,575874,1622864257,279999971,map,121.18221335892,31.27643749348,770.5179661691654,-707.1510633802973,0.0,13.354490280151367,2.971967759878714,0.0,0.0
1622864257.3185482,575875,1622864257,289999962,map,121.18221198001,31.27643767349,770.3870064539951,-707.128945002798,0.0,13.349233627319336,2.9715452611500868,0.0,0.0
1622864257.3288248,575876,1622864257,299999952,map,121.18221059761,31.27643785386,770.2557151067303,-707.1067812405527,0.0,13.353705406188965,2.971124597931874,0.0,0.0
1622864257.3402054,575877,1622864257,309999943,map,121.18220921555,31.27643803439,770.1244564254303,-707.0846002744511,0.0,13.356450080871582,2.9707128094511073,0.0,0.0
1622864257.350397,575878,1622864257,319999933,map,121.18220783383,31.2764382152,769.9932306271512,-707.062388798222,0.0,13.35384464263916,2.9703033161655745,0.0,0.0
1622864257.3583393,575879,1622864257,329999924,map,121.18220645547,31.27643839681,769.8623262010515,-707.0400939090177,0.0,13.347865104675293,2.969884049210763,0.0,0.0
1622864257.3692505,575880,1622864257,339999914,map,121.18220507461,31.27643857851,769.7311839109752,-707.0177851179615,0.0,13.349183082580566,2.9694802757357075,0.0,0.0
1622864257.3779204,575881,1622864257,349999905,map,121.18220369355,31.27643876087,769.6000237852568,-706.9954028464854,0.0,13.35251522064209,2.9690471715138806,0.0,0.0
1622864257.3888557,575882,1622864257,359999895,map,121.18220231281,31.2764389436,769.468894802616,-706.9729800592177,0.0,13.352810859680176,2.968614771218247,0.0,0.0
1622864257.3984783,575883,1622864257,369999886,map,121.18220093643,31.2764391266,769.3381814376335,-706.950534179341,0.0,13.338942527770996,2.9682080043289916,0.0,0.0
1622864257.4084036,575884,1622864257,380000114,map,121.1821995566,31.27643931008,769.2071404703893,-706.9280296741053,0.0,13.341035842895508,2.9677827560610206,0.0,0.0
1622864257.4176018,575885,1622864257,390000105,map,121.1821981765,31.27643949401,769.0760746145388,-706.9054748588242,0.0,13.344658851623535,2.9673648478101255,0.0,0.0
1622864257.4281921,575886,1622864257,400000095,map,121.18219679704,31.27643967838,768.9450705035706,-706.8828722704202,0.0,13.345995903015137,2.966933838506999,0.0,0.0
1622864257.4392655,575887,1622864257,410000086,map,121.18219542175,31.27643986288,768.814463660121,-706.8602618090808,0.0,13.332765579223633,2.966487469608323,0.0,0.0
1622864257.4445262,575888,1622864257,420000076,map,121.1821940433,31.27644004788,768.6835568615352,-706.8375909617171,0.0,13.3320894241333,2.9660478933042036,0.0,0.0
1622864257.4583066,575889,1622864257,430000067,map,121.18219266499,31.27644023334,768.5526642352343,-706.8148693395779,0.0,13.331727981567383,2.9656078350623183,0.0,0.0
1622864257.4684575,575890,1622864257,440000057,map,121.1821912866,31.27644041936,768.4217650131905,-706.7920855092816,0.0,13.331299781799316,2.9651712338115352,0.0,0.0
1622864257.4784873,575891,1622864257,450000048,map,121.18218991245,31.27644060593,768.291270495276,-706.7692473591305,0.0,13.322502136230469,2.964725324161346,0.0,0.0
1622864257.4906306,575892,1622864257,460000038,map,121.18218853476,31.27644079287,768.1604396030889,-706.7463626372628,0.0,13.32495403289795,2.96427804467204,0.0,0.0
1622864257.4984095,575893,1622864257,470000029,map,121.18218715729,31.27644098035,768.0296306461096,-706.7234183968976,0.0,13.325514793395996,2.9638313448065787,0.0,0.0
1622864257.507816,575894,1622864257,480000019,map,121.18218578017,31.27644116846,767.8988561633159,-706.7004048652016,0.0,13.32264232635498,2.96337912884547,0.0,0.0
1622864257.518703,575895,1622864257,490000010,map,121.18218440731,31.27644135733,767.7684886723291,-706.6773137645796,0.0,13.312007904052734,2.9629373404936037,0.0,0.0
1622864257.5286925,575896,1622864257,500000000,map,121.18218303065,31.27644154661,767.637760123529,-706.6541712493636,0.0,13.314839363098145,2.9624961282749216,0.0,0.0
1622864257.5400853,575897,1622864257,509999990,map,121.18218165425,31.27644173655,767.5070575398859,-706.6309559741057,0.0,13.318279266357422,2.9620579683927573,0.0,0.0
1622864257.5488281,575898,1622864257,519999981,map,121.18218027831,31.27644192684,767.3763993894681,-706.6077026212588,0.0,13.313486099243164,2.961624139213519,0.0,0.0
1622864257.5585437,575899,1622864257,529999971,map,121.18217890546,31.27644211828,767.2460375468945,-706.5843266304582,0.0,13.307937622070312,2.9612030973984838,0.0,0.0
1622864257.568497,575900,1622864257,539999962,map,121.18217753016,31.27644230983,767.1154426350258,-706.560934598092,0.0,13.30782699584961,2.960772258055521,0.0,0.0
1622864257.57882,575901,1622864257,549999952,map,121.18217615526,31.27644250184,766.9848866496468,-706.5374922007322,0.0,13.302873611450195,2.960326234435331,0.0,0.0
1622864257.5893807,575902,1622864257,559999943,map,121.18217478009,31.27644269475,766.8543065999984,-706.513949606102,0.0,13.304141998291016,2.9598705502955593,0.0,0.0
1622864257.5979455,575903,1622864257,569999933,map,121.1821734079,31.27644288858,766.7240119650378,-706.4903096985072,0.0,13.30203628540039,2.959446839261233,0.0,0.0
1622864257.6083744,575904,1622864257,579999924,map,121.18217203292,31.27644308263,766.5934520906885,-706.4666410246864,0.0,13.304878234863281,2.959018018583536,0.0,0.0
1622864257.6185508,575905,1622864257,589999914,map,121.18217065777,31.27644327738,766.4628773099976,-706.4428944815882,0.0,13.307130813598633,2.9585877117056207,0.0,0.0
1622864257.6291127,575906,1622864257,599999905,map,121.18216928304,31.27644347257,766.3323433211772,-706.4190998193808,0.0,13.302583694458008,2.9581628916367277,0.0,0.0
1622864257.642362,575907,1622864257,609999895,map,121.18216791129,31.27644366917,766.2020956396591,-706.3951535266824,0.0,13.300198554992676,2.9577335884627587,0.0,0.0
1622864257.6497648,575908,1622864257,619999886,map,121.18216653725,31.27644386557,766.0716295583406,-706.3712258068845,0.0,13.297005653381348,2.957317226399048,0.0,0.0
1622864257.658902,575909,1622864257,630000114,map,121.18216516341,31.27644406243,765.9411833619233,-706.3472474077716,0.0,13.293073654174805,2.9569003766030777,0.0,0.0
1622864257.6690874,575910,1622864257,640000105,map,121.18216378908,31.27644426008,765.8106919520069,-706.3231806620024,0.0,13.297609329223633,2.9564743448393522,0.0,0.0
1622864257.6779692,575911,1622864257,650000095,map,121.18216241715,31.27644445879,765.680430989014,-706.2990001728758,0.0,13.298648834228516,2.956049387203607,0.0,0.0
1622864257.6963058,575912,1622864257,660000086,map,121.18216104318,31.27644465746,765.5499757231446,-706.2748209154233,0.0,13.297321319580078,2.9556182115356964,0.0,0.0
1622864257.6989956,575913,1622864257,670000076,map,121.18215966921,31.2764448566,765.4195213114144,-706.2505895546637,0.0,13.296010971069336,2.9551923708855248,0.0,0.0
1622864257.7084956,575914,1622864257,680000067,map,121.18215829622,31.27644505612,765.2891609061044,-706.2263176040724,0.0,13.292335510253906,2.954757455570439,0.0,0.0
1622864257.7188592,575915,1622864257,690000057,map,121.18215692558,31.27644525707,765.1590268607251,-706.2018908155151,0.0,13.292936325073242,2.9543350141060642,0.0,0.0
1622864257.7283504,575916,1622864257,700000048,map,121.18215555267,31.2764454579,765.0286764635239,-706.1774737667292,0.0,13.293625831604004,2.9539274782072864,0.0,0.0
1622864257.740096,575917,1622864257,710000038,map,121.18215418017,31.27644565922,764.8983660021331,-706.1530030383728,0.0,13.292654991149902,2.953512140477314,0.0,0.0
1622864257.7494612,575918,1622864257,720000029,map,121.18215280761,31.27644586115,764.7680509382626,-706.1284645944834,0.0,13.290882110595703,2.9530843704005596,0.0,0.0
1622864257.7584085,575919,1622864257,730000019,map,121.18215143688,31.2764460642,764.6379121621139,-706.1038048593327,0.0,13.29001235961914,2.9526958842644224,0.0,0.0
1622864257.7685542,575920,1622864257,740000010,map,121.18215006439,31.27644626726,764.5076058303239,-706.0791412545368,0.0,13.290136337280273,2.9522716128397803,0.0,0.0
1622864257.7782028,575921,1622864257,750000000,map,121.18214869156,31.27644647093,764.3772682423005,-706.0544094922952,0.0,13.291231155395508,2.951852566808746,0.0,0.0
1622864257.7892513,575922,1622864257,759999990,map,121.18214731928,31.27644667489,764.2469835517695,-706.0296464427374,0.0,13.286513328552246,2.951455799015495,0.0,0.0
1622864257.7985938,575923,1622864257,769999981,map,121.18214595004,31.27644688012,764.1169906205032,-706.0047473739833,0.0,13.286282539367676,2.9510516682540877,0.0,0.0
1622864257.8083572,575924,1622864257,779999971,map,121.18214457787,31.27644708539,763.9867187993368,-705.9798392718658,0.0,13.287928581237793,2.9506386766306023,0.0,0.0
1622864257.8192785,575925,1622864257,789999962,map,121.18214320634,31.27644729097,763.8565084758447,-705.954897807911,0.0,13.285178184509277,2.9502289901022145,0.0,0.0
1622864257.8289883,575926,1622864257,799999952,map,121.18214183518,31.276447497,763.726334204548,-705.9299070383422,0.0,13.287251472473145,2.9498275773944114,0.0,0.0
1622864257.84313,575927,1622864257,809999943,map,121.18214046558,31.27644770389,763.5963100349763,-705.9048233786598,0.0,13.286266326904297,2.9494066070680636,0.0,0.0
1622864257.848815,575928,1622864257,819999933,map,121.18213909432,31.27644791072,763.4661277027335,-705.8797437623143,0.0,13.284076690673828,2.9489887578965632,0.0,0.0
1622864257.858387,575929,1622864257,829999924,map,121.18213772298,31.27644811802,763.3359386153752,-705.8546119183302,0.0,13.28622055053711,2.9485567467220872,0.0,0.0
1622864257.8680038,575930,1622864257,839999914,map,121.18213635242,31.2764483256,763.2058243050124,-705.8294502557255,0.0,13.283210754394531,2.9481448425434444,0.0,0.0
1622864257.8817244,575931,1622864257,849999905,map,121.18213498278,31.27644853342,763.0757980279741,-705.8042634297162,0.0,13.275162696838379,2.947732315770952,0.0,0.0
1622864257.89457,575932,1622864257,859999895,map,121.18213361492,31.27644874259,762.945943693514,-705.7789297406562,0.0,13.275837898254395,2.9472749536890896,0.0,0.0
1622864257.8985884,575933,1622864257,869999886,map,121.18213224468,31.2764489516,762.8158624635544,-705.7536100521684,0.0,13.275156021118164,2.9468570838354373,0.0,0.0
1622864257.9085994,575934,1622864257,880000114,map,121.18213087456,31.27644916108,762.6857935201842,-705.7282384475693,0.0,13.27754020690918,2.94643211494232,0.0,0.0
1622864257.9189591,575935,1622864257,890000105,map,121.18212950712,31.27644937149,762.5559814400622,-705.7027679495513,0.0,13.275887489318848,2.9460192519146933,0.0,0.0
1622864257.9286036,575936,1622864257,900000095,map,121.18212813753,31.27644958182,762.4259645109414,-705.6773029468022,0.0,13.27120590209961,2.9455956216891117,0.0,0.0
1622864257.9394922,575937,1622864257,910000086,map,121.18212676865,31.27644979234,762.2960155299515,-705.6518179918639,0.0,13.26990795135498,2.94515889868416,0.0,0.0
1622864257.9490917,575938,1622864257,920000076,map,121.18212539903,31.2764500033,762.1659968964523,-705.6262830994092,0.0,13.269613265991211,2.944719859662198,0.0,0.0
1622864257.958707,575939,1622864257,930000067,map,121.18212403205,31.27645021502,762.0362310096971,-705.6006680969149,0.0,13.270757675170898,2.9442912233610823,0.0,0.0
1622864257.9687922,575940,1622864257,940000057,map,121.18212266253,31.27645042689,761.9062235628953,-705.5750324781984,0.0,13.273679733276367,2.9438426378593507,0.0,0.0
1622864257.9779348,575941,1622864257,950000048,map,121.18212129353,31.27645063913,761.7762662983732,-705.5493566566147,0.0,13.274099349975586,2.9433974470055606,0.0,0.0
1622864257.9893882,575942,1622864257,960000038,map,121.18211992461,31.2764508516,761.6463170761708,-705.5236554634757,0.0,13.271653175354004,2.9429714731693126,0.0,0.0
1622864257.9987462,575943,1622864257,970000029,map,121.18211855839,31.27645106498,761.5166265823646,-705.4978576255962,0.0,13.269255638122559,2.942516202201334,0.0,0.0
1622864258.0091345,575944,1622864257,980000019,map,121.18211718994,31.27645127839,761.3867238262901,-705.4720529615879,0.0,13.266657829284668,2.942086236046595,0.0,0.0
1622864258.0186586,575945,1622864257,990000010,map,121.18211582188,31.27645149203,761.2568586221896,-705.4462234107777,0.0,13.264161109924316,2.9416443738673017,0.0,0.0
1622864258.0308444,575946,1622864258,0,map,121.18211445294,31.27645170646,761.1269110757858,-705.4203049023636,0.0,13.269355773925781,2.9411887679008264,0.0,0.0
1622864258.0477915,575947,1622864258,9999990,map,121.18211308689,31.27645192165,760.997240080731,-705.3943066759966,0.0,13.26981258392334,2.9407465062505733,0.0,0.0
1622864258.0588124,575948,1622864258,19999981,map,121.18211171894,31.27645213673,760.8673879817361,-705.368317659013,0.0,13.265968322753906,2.9402923789444935,0.0,0.0
1622864258.0677705,575949,1622864258,29999971,map,121.18211035064,31.27645235248,760.7375037816819,-705.342253820505,0.0,13.264827728271484,2.939844936109823,0.0,0.0
1622864258.0775957,575950,1622864258,39999962,map,121.18210897571,31.27645256764,760.6069872520166,-705.3162449831143,0.0,13.264752388000488,2.93944038219334,0.0,0.0
1622864258.0935092,575951,1622864258,49999952,map,121.18210760253,31.27645278385,760.4766392633319,-705.2901224903762,0.0,13.265727043151855,2.9390050129181158,0.0,0.0
1622864258.0978675,575952,1622864258,59999943,map,121.18210622681,31.27645300154,760.346052139008,-705.2638319465332,0.0,13.268820762634277,2.938572527031535,0.0,0.0
1622864258.106279,575953,1622864258,69999933,map,121.18210485379,31.27645321904,760.2157217386994,-705.2375666969456,0.0,13.267788887023926,2.9381534847529585,0.0,0.0
1622864258.1154616,575954,1622864258,79999924,map,121.182103481,31.27645343718,760.0854144084151,-705.2112308600917,0.0,13.267959594726562,2.9377270653690593,0.0,0.0
1622864258.1254344,575955,1622864258,89999914,map,121.18210210641,31.27645365624,759.9549373764894,-705.1847902084701,0.0,13.269294738769531,2.9372854874515406,0.0,0.0
1622864258.1348817,575956,1622864258,99999905,map,121.18210073366,31.27645387549,759.8246358833276,-705.1583313820884,0.0,13.268386840820312,2.93685233905543,0.0,0.0
1622864258.1462646,575957,1622864258,109999895,map,121.18209936079,31.27645409551,759.6943243721616,-705.1317870048806,0.0,13.274727821350098,2.9364287626208956,0.0,0.0
1622864258.1544502,575958,1622864258,119999886,map,121.18209798784,31.27645431614,759.5640063567553,-705.1051748800091,0.0,13.274776458740234,2.936016224154697,0.0,0.0
1622864258.1639,575959,1622864258,130000114,map,121.18209661479,31.2764545374,759.4336799742887,-705.078492755536,0.0,13.268901824951172,2.9355711872214933,0.0,0.0
1622864258.1738138,575960,1622864258,140000105,map,121.18209524213,31.2764547592,759.3033917077119,-705.0517513803206,0.0,13.27549934387207,2.9351408317012524,0.0,0.0
1622864258.1826665,575961,1622864258,150000095,map,121.18209387044,31.27645498124,759.1731962397462,-705.0249849203974,0.0,13.271849632263184,2.9347249078897164,0.0,0.0
1622864258.1941705,575962,1622864258,160000086,map,121.18209249881,31.27645520377,759.0430073774187,-704.9981642328203,0.0,13.264422416687012,2.9343257395182523,0.0,0.0
1622864258.2021527,575963,1622864258,170000076,map,121.18209112574,31.27645542746,758.9126835295465,-704.9712126916274,0.0,13.270248413085938,2.93390942770257,0.0,0.0
1622864258.2114248,575964,1622864258,180000067,map,121.18208975426,31.27645565129,758.7825113268336,-704.9442481235601,0.0,13.270299911499023,2.9334965281277485,0.0,0.0
1622864258.2203975,575965,1622864258,190000057,map,121.18208838326,31.27645587553,758.6523855736596,-704.9172388575971,0.0,13.270610809326172,2.9330863816352895,0.0,0.0
1622864258.231009,575966,1622864258,200000048,map,121.18208701221,31.27645610045,758.5222563029383,-704.8901541274972,0.0,13.271718978881836,2.9326676192028054,0.0,0.0
1622864258.242038,575967,1622864258,210000038,map,121.18208564085,31.27645632586,758.39209841314,-704.8630145913921,0.0,13.263734817504883,2.9322572781061353,0.0,0.0
1622864258.2516837,575968,1622864258,220000029,map,121.18208427006,31.27645655179,758.2619957426796,-704.835818302352,0.0,13.268988609313965,2.931839081090515,0.0,0.0
1622864258.2594805,575969,1622864258,230000019,map,121.18208289892,31.2764567784,758.1318609919981,-704.8085460811853,0.0,13.272927284240723,2.9314323660200845,0.0,0.0
1622864258.2689106,575970,1622864258,240000010,map,121.18208152913,31.27645700527,758.001855253242,-704.7812471538782,0.0,13.269818305969238,2.931025419780795,0.0,0.0
1622864258.2779891,575971,1622864258,250000000,map,121.18208015796,31.27645723316,757.8717199856183,-704.7538329861127,0.0,13.265324592590332,2.9306023574155398,0.0,0.0
1622864258.289337,575972,1622864258,259999990,map,121.18207878859,31.27645746128,757.7417565190699,-704.7263961439021,0.0,13.264866828918457,2.9301894728854556,0.0,0.0
1622864258.29849,575973,1622864258,269999981,map,121.18207741861,31.27645769009,757.6117362361401,-704.6988818515092,0.0,13.267387390136719,2.9297851450065635,0.0,0.0
1622864258.3085988,575974,1622864258,279999971,map,121.18207604904,31.27645791944,757.4817559757503,-704.6713083405048,0.0,13.2718505859375,2.9293880906127967,0.0,0.0
1622864258.3186393,575975,1622864258,289999962,map,121.18207467915,31.27645814937,757.3517463088501,-704.6436700294726,0.0,13.264678001403809,2.928988257235981,0.0,0.0
1622864258.3288956,575976,1622864258,299999952,map,121.18207330975,31.27645837984,757.221784278634,-704.6159726222977,0.0,13.266170501708984,2.928588028053397,0.0,0.0
1622864258.3399181,575977,1622864258,309999943,map,121.18207194024,31.27645861098,757.0918130023638,-704.5882007684559,0.0,13.26760482788086,2.9282005874567485,0.0,0.0
1622864258.3495514,575978,1622864258,319999933,map,121.18207057159,31.27645884256,756.9619244124042,-704.5603814851493,0.0,13.264904022216797,2.9278174756780704,0.0,0.0
1622864258.3586712,575979,1622864258,329999924,map,121.18206920163,31.27645907503,756.8319127229042,-704.5324614844285,0.0,13.26229476928711,2.9274122318329336,0.0,0.0
1622864258.3687887,575980,1622864258,339999914,map,121.18206783306,31.27645930779,756.7020339086885,-704.504511512816,0.0,13.263601303100586,2.927035267016615,0.0,0.0
1622864258.3785,575981,1622864258,349999905,map,121.18206646463,31.27645954081,756.5721688967897,-704.4765329374932,0.0,13.263538360595703,2.92664483674077,0.0,0.0
1622864258.389977,575982,1622864258,359999895,map,121.18206509643,31.27645977422,756.4423264982179,-704.4485114887357,0.0,13.264789581298828,2.9262668344658374,0.0,0.0
1622864258.3981824,575983,1622864258,369999886,map,121.18206372643,31.27646000816,756.3123136856593,-704.4204284586012,0.0,13.261922836303711,2.925854775162331,0.0,0.0
1622864258.4083154,575984,1622864258,380000114,map,121.18206235859,31.27646024238,756.182507045567,-704.3923177770339,0.0,13.261411666870117,2.925436019833337,0.0,0.0
1622864258.4189017,575985,1622864258,390000105,map,121.18206099086,31.27646047706,756.0527117167367,-704.364156274125,0.0,13.26041316986084,2.9250198481675938,0.0,0.0
1622864258.4281616,575986,1622864258,400000095,map,121.18205962338,31.27646071207,755.9229407960083,-704.3359585767612,0.0,13.256766319274902,2.9246196178679993,0.0,0.0
1622864258.4397407,575987,1622864258,410000086,map,121.1820582542,31.27646094797,755.7930096397176,-704.3076595510356,0.0,13.25936222076416,2.9242174715284994,0.0,0.0
1622864258.448772,575988,1622864258,420000076,map,121.18205688703,31.27646118389,755.6632698995527,-704.2793614598922,0.0,13.259523391723633,2.9238310577265025,0.0,0.0
1622864258.4586227,575989,1622864258,430000067,map,121.18205551937,31.27646142036,755.5334845052566,-704.2510016271845,0.0,13.260079383850098,2.9234638189494273,0.0,0.0
1622864258.4690278,575990,1622864258,440000057,map,121.18205415261,31.27646165716,755.4037854092894,-704.2226066230796,0.0,13.259323120117188,2.9230610019846153,0.0,0.0
1622864258.4785755,575991,1622864258,450000048,map,121.18205278635,31.27646189417,755.2741343043162,-704.1941891205497,0.0,13.256034851074219,2.9226465928221645,0.0,0.0
1622864258.4894035,575992,1622864258,460000038,map,121.18205141788,31.27646213196,755.1442742040381,-704.1656816825271,0.0,13.255483627319336,2.9222751796538495,0.0,0.0
1622864258.4993024,575993,1622864258,470000029,map,121.1820500511,31.27646236987,755.0145752359531,-704.1371635911055,0.0,13.256041526794434,2.9218992547046985,0.0,0.0
1622864258.508159,575994,1622864258,480000019,map,121.18204868471,31.27646260825,754.8849142533727,-704.1085940101184,0.0,13.258095741271973,2.9215180300283676,0.0,0.0
1622864258.5183454,575995,1622864258,490000010,map,121.18204731762,31.27646284709,754.755187468254,-704.0799723328091,0.0,13.255908966064453,2.921095515225258,0.0,0.0
1622864258.528684,575996,1622864258,500000000,map,121.18204595182,31.27646308618,754.6255839617806,-704.0513249635696,0.0,13.254941940307617,2.920700260423029,0.0,0.0
1622864258.5397758,575997,1622864258,509999990,map,121.18204458596,31.27646332561,754.4959753621952,-704.0226398087107,0.0,13.253817558288574,2.920320174242423,0.0,0.0
1622864258.5486186,575998,1622864258,519999981,map,121.18204322041,31.27646356555,754.3663972119102,-703.9938986026682,0.0,13.255054473876953,2.919944733866486,0.0,0.0
1622864258.5585766,575999,1622864258,529999971,map,121.18204185398,31.27646380571,754.236735680548,-703.9651316255331,0.0,13.251219749450684,2.919554317710355,0.0,0.0
1622864258.5679288,576000,1622864258,539999962,map,121.18204048903,31.27646404632,754.1072158829775,-703.9363170852885,0.0,13.253952026367188,2.9191492606154483,0.0,0.0
1622864258.581684,576001,1622864258,549999952,map,121.18203912468,31.27646428709,753.9777535058092,-703.9074857449159,0.0,13.253361701965332,2.9187711460983916,0.0,0.0
1622864258.5889888,576002,1622864258,559999943,map,121.18203776035,31.27646452818,753.8482936180662,-703.8786189612001,0.0,13.248943328857422,2.918395019092473,0.0,0.0
1622864258.598167,576003,1622864258,569999933,map,121.18203639575,31.27646476998,753.7188093216391,-703.8496730462648,0.0,13.248246192932129,2.9179916794190035,0.0,0.0
1622864258.6082492,576004,1622864258,579999924,map,121.18203503056,31.27646501242,753.5892700193799,-703.8206552541815,0.0,13.244829177856445,2.9176092095375172,0.0,0.0
1622864258.6183891,576005,1622864258,589999914,map,121.18203366676,31.27646525521,753.459863699507,-703.7916008438915,0.0,13.24718189239502,2.9172323287588022,0.0,0.0
1622864258.6286585,576006,1622864258,599999905,map,121.18203230304,31.27646549844,753.3304658032139,-703.7624977789819,0.0,13.245429992675781,2.91685533980458,0.0,0.0
1622864258.6391032,576007,1622864258,609999895,map,121.18203093886,31.2764657422,753.2010250771418,-703.7333352388814,0.0,13.239805221557617,2.9164738589313686,0.0,0.0
1622864258.648797,576008,1622864258,619999886,map,121.18202957564,31.27646598637,753.0716765035177,-703.7041287519969,0.0,13.240039825439453,2.916110936039373,0.0,0.0
1622864258.6582294,576009,1622864258,630000114,map,121.18202821244,31.276466231,752.9423306748504,-703.6748712998815,0.0,13.242769241333008,2.9157418642127966,0.0,0.0
1622864258.6688735,576010,1622864258,640000105,map,121.1820268497,31.27646647583,752.8130290105473,-703.6455923984759,0.0,13.242836952209473,2.915366706859451,0.0,0.0
1622864258.677996,576011,1622864258,650000095,map,121.18202548531,31.27646672098,752.6835708349827,-703.616275432054,0.0,13.236798286437988,2.9149873774187016,0.0,0.0
1622864258.6884859,576012,1622864258,660000086,map,121.18202412282,31.27646696651,752.5542942528846,-703.5869193193503,0.0,13.237342834472656,2.914610090449509,0.0,0.0
1622864258.6984317,576013,1622864258,670000076,map,121.18202276009,31.27646721259,752.4249958259752,-703.5575018594973,0.0,13.237090110778809,2.9142223123061832,0.0,0.0
1622864258.7091324,576014,1622864258,680000067,map,121.18202139811,31.27646745897,752.2957693542703,-703.5280523155816,0.0,13.23442268371582,2.9138364074771035,0.0,0.0
1622864258.7179534,576015,1622864258,690000057,map,121.18202003499,31.2764677059,752.1664353500819,-703.4985400112346,0.0,13.234763145446777,2.9134301863173984,0.0,0.0
1622864258.728632,576016,1622864258,700000048,map,121.18201867313,31.27646795314,752.0372218805132,-703.4689953187481,0.0,13.234648704528809,2.9130673046849873,0.0,0.0
1622864258.7395217,576017,1622864258,710000038,map,121.18201731172,31.27646820063,751.9080517096445,-703.4394236160442,0.0,13.234055519104004,2.9127223115254903,0.0,0.0
1622864258.7482984,576018,1622864258,720000029,map,121.18201594986,31.27646844869,751.7788397393306,-703.4097880176269,0.0,13.232902526855469,2.912352254774711,0.0,0.0
1622864258.7586846,576019,1622864258,730000019,map,121.18201458709,31.27646869741,751.6495423281449,-703.3800778239965,0.0,13.23420238494873,2.9119543305612035,0.0,0.0
1622864258.768585,576020,1622864258,740000010,map,121.18201322624,31.27646894617,751.5204278008314,-703.350366207771,0.0,13.234107971191406,2.911564188037794,0.0,0.0
